[
    {
        "animal_name": "Brown brocket",
        "date": -1335689972,
        "latitude": 49.660465,
        "longitude": 32.3448813,
        "priority": 0.43,
        "validated": false,
        "version": "9.77"
    },
    {
        "animal_name": "Puffin, horned",
        "date": -1398164147,
        "latitude": 19.602311,
        "longitude": -99.1732936,
        "priority": 0.56,
        "validated": true,
        "version": "2.2.4"
    },
    {
        "animal_name": "Red-capped cardinal",
        "date": -1183373450,
        "latitude": 21.5743109,
        "longitude": 105.8215718,
        "priority": 0.75,
        "validated": false,
        "version": "0.6.8"
    },
    {
        "animal_name": "Boa, emerald green tree",
        "date": -317093191,
        "latitude": 14.6072726,
        "longitude": -90.6793295,
        "priority": 0.8,
        "validated": false,
        "version": "7.65"
    },
    {
        "animal_name": "Baboon, olive",
        "date": -1473528544,
        "latitude": 55.8117129,
        "longitude": 23.5500468,
        "priority": 0.16,
        "validated": false,
        "version": "0.46"
    },
    {
        "animal_name": "Orca",
        "date": 235502449,
        "latitude": 40.0506279,
        "longitude": -83.0683519,
        "priority": 0.47,
        "validated": false,
        "version": "2.2"
    },
    {
        "animal_name": "Possum, ring-tailed",
        "date": -1774014772,
        "latitude": 18.2868231,
        "longitude": 99.4819782,
        "priority": 0.29,
        "validated": false,
        "version": "6.7"
    },
    {
        "animal_name": "Gull, dusky",
        "date": -1263369172,
        "latitude": 41.4266886,
        "longitude": 48.4345577,
        "priority": 0.2,
        "validated": true,
        "version": "9.00"
    },
    {
        "animal_name": "Armadillo, nine-banded",
        "date": -1129447692,
        "latitude": -7.1221059,
        "longitude": 106.5701927,
        "priority": 0.39,
        "validated": false,
        "version": "0.5.7"
    },
    {
        "animal_name": "Raccoon dog",
        "date": -1503939276,
        "latitude": -15.4979257,
        "longitude": -67.8823146,
        "priority": 0.7,
        "validated": false,
        "version": "6.8"
    },
    {
        "animal_name": "Wombat, southern hairy-nosed",
        "date": -2146235095,
        "latitude": 59.76039,
        "longitude": 30.4754399,
        "priority": 0.38,
        "validated": true,
        "version": "0.5.2"
    },
    {
        "animal_name": "Hawk, ferruginous",
        "date": 58248606,
        "latitude": 35.910325,
        "longitude": 14.424426,
        "priority": 0.5,
        "validated": false,
        "version": "6.75"
    },
    {
        "animal_name": "Pacific gull",
        "date": -1287832293,
        "latitude": 25.8263535,
        "longitude": -97.5294628,
        "priority": 0.68,
        "validated": false,
        "version": "0.4.0"
    },
    {
        "animal_name": "Tortoise, indian star",
        "date": 377831373,
        "latitude": -34.6906944,
        "longitude": -58.601544,
        "priority": 0.51,
        "validated": true,
        "version": "0.15"
    },
    {
        "animal_name": "Tammar wallaby",
        "date": 464126601,
        "latitude": 46.019373,
        "longitude": 15.4759099,
        "priority": 0.29,
        "validated": false,
        "version": "3.48"
    },
    {
        "animal_name": "Francolin, swainson's",
        "date": -29933383,
        "latitude": 9.2964349,
        "longitude": 99.0571089,
        "priority": 0.13,
        "validated": false,
        "version": "3.40"
    },
    {
        "animal_name": "Fowl, helmeted guinea",
        "date": 568068176,
        "latitude": -7.0197713,
        "longitude": 113.8614481,
        "priority": 0.63,
        "validated": true,
        "version": "7.5.1"
    },
    {
        "animal_name": "Springbuck",
        "date": -158649994,
        "latitude": 52.2871973,
        "longitude": 21.2810466,
        "priority": 0.45,
        "validated": false,
        "version": "2.7.3"
    },
    {
        "animal_name": "Racer, blue",
        "date": -964795680,
        "latitude": -1.2088413,
        "longitude": 116.8776192,
        "priority": 0.67,
        "validated": true,
        "version": "0.66"
    },
    {
        "animal_name": "Hoffman's sloth",
        "date": 325240538,
        "latitude": -3.0050767,
        "longitude": -47.3535246,
        "priority": 0.33,
        "validated": true,
        "version": "7.7.3"
    },
    {
        "animal_name": "Peccary, white-lipped",
        "date": -1128369371,
        "latitude": 34.5750415,
        "longitude": 105.7751383,
        "priority": 0.49,
        "validated": false,
        "version": "0.5.1"
    },
    {
        "animal_name": "Tasmanian devil",
        "date": 549954373,
        "latitude": 47.2495437,
        "longitude": 107.5408308,
        "priority": 0.69,
        "validated": false,
        "version": "3.6"
    },
    {
        "animal_name": "Common eland",
        "date": 222394149,
        "latitude": 35.3042606,
        "longitude": 50.5006231,
        "priority": 0.22,
        "validated": false,
        "version": "6.41"
    },
    {
        "animal_name": "Blue shark",
        "date": -1646871057,
        "latitude": -23.3233727,
        "longitude": -46.7294577,
        "priority": 0.17,
        "validated": false,
        "version": "6.0"
    },
    {
        "animal_name": "Stork, openbill",
        "date": -2157840861,
        "latitude": 38.2,
        "longitude": -85.7,
        "priority": 0.28,
        "validated": true,
        "version": "4.0.0"
    },
    {
        "animal_name": "Savanna fox",
        "date": -437402177,
        "latitude": 14.8751623,
        "longitude": -86.1828047,
        "priority": 0.28,
        "validated": true,
        "version": "0.4.2"
    },
    {
        "animal_name": "Civet, common palm",
        "date": -1392253150,
        "latitude": 58.0780287,
        "longitude": 13.0188387,
        "priority": 0.6,
        "validated": true,
        "version": "0.8.7"
    },
    {
        "animal_name": "Laughing kookaburra",
        "date": -1706519347,
        "latitude": 46.5838069,
        "longitude": 0.3350126,
        "priority": 0.77,
        "validated": false,
        "version": "0.5.6"
    },
    {
        "animal_name": "Toddy cat",
        "date": -1830768075,
        "latitude": 51.820919,
        "longitude": 39.591263,
        "priority": 0.41,
        "validated": true,
        "version": "5.96"
    },
    {
        "animal_name": "Steenbuck",
        "date": -1548026462,
        "latitude": 36.22242,
        "longitude": 69.15038,
        "priority": 0.1,
        "validated": true,
        "version": "0.39"
    },
    {
        "animal_name": "Kori bustard",
        "date": -2034560895,
        "latitude": -24.9852879,
        "longitude": -55.1513801,
        "priority": 0.22,
        "validated": true,
        "version": "8.6.4"
    },
    {
        "animal_name": "Pine squirrel",
        "date": -1410667012,
        "latitude": -8.283558,
        "longitude": 116.354462,
        "priority": 0.48,
        "validated": true,
        "version": "0.28"
    },
    {
        "animal_name": "Red-headed woodpecker",
        "date": -1151771997,
        "latitude": 6.8429422,
        "longitude": 7.3732655,
        "priority": 0.72,
        "validated": false,
        "version": "9.9"
    },
    {
        "animal_name": "Little brown dove",
        "date": -1818627777,
        "latitude": 14.6141298,
        "longitude": 121.0143507,
        "priority": 0.83,
        "validated": true,
        "version": "5.09"
    },
    {
        "animal_name": "Whale, long-finned pilot",
        "date": 807390640,
        "latitude": -8.1384242,
        "longitude": 112.0804259,
        "priority": 0.75,
        "validated": false,
        "version": "0.37"
    },
    {
        "animal_name": "Red kangaroo",
        "date": 188285936,
        "latitude": 46.946681,
        "longitude": 142.0144982,
        "priority": 0.67,
        "validated": true,
        "version": "0.53"
    },
    {
        "animal_name": "White-throated robin",
        "date": -1734140851,
        "latitude": 51.949401,
        "longitude": -7.8434254,
        "priority": 0.34,
        "validated": true,
        "version": "0.42"
    },
    {
        "animal_name": "Common shelduck",
        "date": -473015092,
        "latitude": 41.654661,
        "longitude": 126.154678,
        "priority": 0.71,
        "validated": true,
        "version": "9.0"
    },
    {
        "animal_name": "Bonnet macaque",
        "date": -1987585165,
        "latitude": -27.2786239,
        "longitude": 28.5155901,
        "priority": 0.8,
        "validated": false,
        "version": "9.8"
    },
    {
        "animal_name": "Dove, emerald-spotted wood",
        "date": -1621544729,
        "latitude": 59.2916062,
        "longitude": 18.2637328,
        "priority": 0.77,
        "validated": true,
        "version": "6.1.6"
    },
    {
        "animal_name": "Mandras tree shrew",
        "date": -508190349,
        "latitude": -6.9394,
        "longitude": 113.5273,
        "priority": 0.17,
        "validated": false,
        "version": "4.5"
    },
    {
        "animal_name": "Crab (unidentified)",
        "date": -254452693,
        "latitude": 41.5565343,
        "longitude": 24.0428542,
        "priority": 0.13,
        "validated": false,
        "version": "7.2"
    },
    {
        "animal_name": "Little grebe",
        "date": -1182898969,
        "latitude": 9.1192516,
        "longitude": 4.8261424,
        "priority": 0.41,
        "validated": false,
        "version": "4.30"
    },
    {
        "animal_name": "Owl, burrowing",
        "date": -1594658083,
        "latitude": 48.8493975,
        "longitude": 2.4751086,
        "priority": 0.48,
        "validated": false,
        "version": "7.5"
    },
    {
        "animal_name": "Common duiker",
        "date": -99026435,
        "latitude": -38.0752295,
        "longitude": -57.5554058,
        "priority": 0.27,
        "validated": false,
        "version": "7.6"
    },
    {
        "animal_name": "Grouse, greater sage",
        "date": -962135716,
        "latitude": 31.889745,
        "longitude": 120.036434,
        "priority": 0.37,
        "validated": false,
        "version": "3.7.9"
    },
    {
        "animal_name": "Hyena, brown",
        "date": 154964745,
        "latitude": 52.8314927,
        "longitude": -8.9775014,
        "priority": 0.56,
        "validated": true,
        "version": "0.2.7"
    },
    {
        "animal_name": "Burmese brown mountain tortoise",
        "date": -1858386011,
        "latitude": 40.7681987,
        "longitude": -73.9608428,
        "priority": 0.58,
        "validated": true,
        "version": "4.0"
    },
    {
        "animal_name": "Common palm civet",
        "date": -1254706408,
        "latitude": 34.401112,
        "longitude": 107.759245,
        "priority": 0.75,
        "validated": false,
        "version": "4.9.5"
    },
    {
        "animal_name": "Kaffir cat",
        "date": 399452446,
        "latitude": 40.256729,
        "longitude": 115.474295,
        "priority": 0.23,
        "validated": false,
        "version": "4.96"
    },
    {
        "animal_name": "Asian openbill",
        "date": -1101788340,
        "latitude": 11.142722,
        "longitude": 105.8290298,
        "priority": 0.32,
        "validated": true,
        "version": "3.7"
    },
    {
        "animal_name": "Wild water buffalo",
        "date": -750425901,
        "latitude": 47.2186081,
        "longitude": 34.6661709,
        "priority": 0.45,
        "validated": false,
        "version": "9.7.4"
    },
    {
        "animal_name": "Violet-crested turaco",
        "date": -1577945147,
        "latitude": 58.078572,
        "longitude": 13.5187927,
        "priority": 0.68,
        "validated": false,
        "version": "4.6.0"
    },
    {
        "animal_name": "Gray heron",
        "date": 778439040,
        "latitude": 49.7979502,
        "longitude": 21.0782963,
        "priority": 0.47,
        "validated": false,
        "version": "0.3.1"
    },
    {
        "animal_name": "Stone sheep",
        "date": 803285314,
        "latitude": 25.7564471,
        "longitude": -80.2056382,
        "priority": 0.62,
        "validated": false,
        "version": "0.3.9"
    },
    {
        "animal_name": "Common pheasant",
        "date": 509830878,
        "latitude": 14.8043413,
        "longitude": 120.8805975,
        "priority": 0.49,
        "validated": false,
        "version": "4.99"
    },
    {
        "animal_name": "Tern, white-winged",
        "date": 679718316,
        "latitude": 19.5037694,
        "longitude": -99.1324282,
        "priority": 0.2,
        "validated": false,
        "version": "3.1"
    },
    {
        "animal_name": "Water legaan",
        "date": -463803340,
        "latitude": -8.4399,
        "longitude": 115.3561,
        "priority": 0.37,
        "validated": true,
        "version": "0.4.1"
    },
    {
        "animal_name": "Blue waxbill",
        "date": -2056093631,
        "latitude": 43.55,
        "longitude": -116.28,
        "priority": 0.26,
        "validated": false,
        "version": "7.0.8"
    },
    {
        "animal_name": "Sandpiper, spotted wood",
        "date": 145058286,
        "latitude": 19.5615596,
        "longitude": -99.3090985,
        "priority": 0.89,
        "validated": true,
        "version": "4.1.1"
    },
    {
        "animal_name": "Black-faced kangaroo",
        "date": -1021988824,
        "latitude": 30.4703023,
        "longitude": 106.6403668,
        "priority": 0.19,
        "validated": false,
        "version": "0.1.0"
    },
    {
        "animal_name": "Phascogale, brush-tailed",
        "date": -499158417,
        "latitude": 45.161017,
        "longitude": 1.663862,
        "priority": 0.87,
        "validated": true,
        "version": "7.91"
    },
    {
        "animal_name": "Swamp deer",
        "date": 97798078,
        "latitude": -11.2407526,
        "longitude": -48.4473452,
        "priority": 0.24,
        "validated": true,
        "version": "1.40"
    },
    {
        "animal_name": "Spectacled caiman",
        "date": 748667389,
        "latitude": -18.8228804,
        "longitude": -40.9050432,
        "priority": 0.69,
        "validated": false,
        "version": "0.9.0"
    },
    {
        "animal_name": "Armadillo, nine-banded",
        "date": -1356089387,
        "latitude": 16.1344075,
        "longitude": 102.2090224,
        "priority": 0.63,
        "validated": false,
        "version": "0.9.2"
    },
    {
        "animal_name": "Wallaby, euro",
        "date": -619628931,
        "latitude": 41.107107,
        "longitude": 120.749727,
        "priority": 0.13,
        "validated": true,
        "version": "3.2"
    },
    {
        "animal_name": "Worm snake (unidentified)",
        "date": 163166322,
        "latitude": 50.7643672,
        "longitude": 21.6390801,
        "priority": 0.86,
        "validated": true,
        "version": "0.25"
    },
    {
        "animal_name": "Groundhog",
        "date": 307354226,
        "latitude": 16.0619782,
        "longitude": 103.4049445,
        "priority": 0.35,
        "validated": true,
        "version": "0.4.8"
    },
    {
        "animal_name": "Mongoose, eastern dwarf",
        "date": -1767881608,
        "latitude": -23.6719404,
        "longitude": 22.7926759,
        "priority": 0.56,
        "validated": false,
        "version": "0.2.4"
    },
    {
        "animal_name": "Kinkajou",
        "date": -1931532393,
        "latitude": -6.2057964,
        "longitude": 106.7057733,
        "priority": 0.15,
        "validated": true,
        "version": "6.5.3"
    },
    {
        "animal_name": "Monkey, rhesus",
        "date": -150497190,
        "latitude": 13.9894141,
        "longitude": 121.1394301,
        "priority": 0.89,
        "validated": false,
        "version": "7.5.0"
    },
    {
        "animal_name": "Crocodile, nile",
        "date": 202182891,
        "latitude": -8.6020564,
        "longitude": 116.435616,
        "priority": 0.18,
        "validated": true,
        "version": "8.99"
    },
    {
        "animal_name": "Orca",
        "date": -488372545,
        "latitude": 55.8038507,
        "longitude": 38.9815138,
        "priority": 0.53,
        "validated": true,
        "version": "6.2.7"
    },
    {
        "animal_name": "Rattlesnake, horned",
        "date": -637025852,
        "latitude": 26.641315,
        "longitude": 100.222545,
        "priority": 0.21,
        "validated": false,
        "version": "2.55"
    },
    {
        "animal_name": "Wolf, timber",
        "date": -1803259399,
        "latitude": -0.5202646,
        "longitude": 166.9513432,
        "priority": 0.28,
        "validated": false,
        "version": "3.9.0"
    },
    {
        "animal_name": "Woodcock, american",
        "date": 63701763,
        "latitude": -8.5325093,
        "longitude": 117.0117307,
        "priority": 0.27,
        "validated": false,
        "version": "0.48"
    },
    {
        "animal_name": "Pelican, great white",
        "date": -2092433026,
        "latitude": 32.983101,
        "longitude": 107.766613,
        "priority": 0.42,
        "validated": false,
        "version": "0.6.0"
    },
    {
        "animal_name": "Egyptian cobra",
        "date": 292422524,
        "latitude": 20.044412,
        "longitude": 110.198286,
        "priority": 0.17,
        "validated": true,
        "version": "7.69"
    },
    {
        "animal_name": "Asian foreset tortoise",
        "date": -116304227,
        "latitude": 38.689871,
        "longitude": 106.253324,
        "priority": 0.36,
        "validated": false,
        "version": "9.8.4"
    },
    {
        "animal_name": "Hyrax",
        "date": -1064168501,
        "latitude": -14.087458699999999,
        "longitude": -75.762586,
        "priority": 0.85,
        "validated": false,
        "version": "9.5.6"
    },
    {
        "animal_name": "Kongoni",
        "date": -414954278,
        "latitude": 14.72328,
        "longitude": 102.1609718,
        "priority": 0.24,
        "validated": true,
        "version": "0.39"
    },
    {
        "animal_name": "Raccoon, common",
        "date": -714458511,
        "latitude": 42.3521585,
        "longitude": 44.6875131,
        "priority": 0.9,
        "validated": false,
        "version": "0.31"
    },
    {
        "animal_name": "Drongo, fork-tailed",
        "date": 320281938,
        "latitude": 19.4194815,
        "longitude": -99.1894558,
        "priority": 0.23,
        "validated": true,
        "version": "4.17"
    },
    {
        "animal_name": "Cormorant, flightless",
        "date": -517259435,
        "latitude": 37.5247192,
        "longitude": 129.1142915,
        "priority": 0.12,
        "validated": true,
        "version": "2.7.5"
    },
    {
        "animal_name": "Red-legged pademelon",
        "date": 951100422,
        "latitude": 14.4068464,
        "longitude": 103.1048449,
        "priority": 0.17,
        "validated": false,
        "version": "6.5"
    },
    {
        "animal_name": "Eurasian hoopoe",
        "date": -1334609475,
        "latitude": 31.2303904,
        "longitude": 121.4737021,
        "priority": 0.72,
        "validated": false,
        "version": "3.5"
    },
    {
        "animal_name": "Toddy cat",
        "date": 465373486,
        "latitude": 15.5211125,
        "longitude": -86.2209316,
        "priority": 0.35,
        "validated": false,
        "version": "2.09"
    },
    {
        "animal_name": "Tayra",
        "date": 720783249,
        "latitude": 69.4326713,
        "longitude": 30.8274819,
        "priority": 0.66,
        "validated": false,
        "version": "5.82"
    },
    {
        "animal_name": "Common waterbuck",
        "date": 250970122,
        "latitude": 10.7224254,
        "longitude": 122.2618013,
        "priority": 0.69,
        "validated": true,
        "version": "0.56"
    },
    {
        "animal_name": "Monkey, black spider",
        "date": 648880164,
        "latitude": -6.1869527,
        "longitude": 106.1698563,
        "priority": 0.83,
        "validated": false,
        "version": "0.6.5"
    },
    {
        "animal_name": "Blue crane",
        "date": -777472843,
        "latitude": -7.012244,
        "longitude": 111.3798928,
        "priority": 0.37,
        "validated": false,
        "version": "0.77"
    },
    {
        "animal_name": "Dolphin, common",
        "date": 785640252,
        "latitude": 30.978349,
        "longitude": 107.980213,
        "priority": 0.75,
        "validated": false,
        "version": "3.2.5"
    },
    {
        "animal_name": "Mexican wolf",
        "date": -2075482385,
        "latitude": 19.4838854,
        "longitude": -99.1135903,
        "priority": 0.4,
        "validated": true,
        "version": "0.3.1"
    },
    {
        "animal_name": "Duck, comb",
        "date": 260837045,
        "latitude": 5.6763925,
        "longitude": -73.8066163,
        "priority": 0.65,
        "validated": false,
        "version": "2.1"
    },
    {
        "animal_name": "American buffalo",
        "date": -2058830950,
        "latitude": 9.453835,
        "longitude": 125.574534,
        "priority": 0.61,
        "validated": true,
        "version": "0.28"
    },
    {
        "animal_name": "White stork",
        "date": -1707821426,
        "latitude": 5.6153822,
        "longitude": 95.4306141,
        "priority": 0.22,
        "validated": true,
        "version": "4.22"
    },
    {
        "animal_name": "Small-clawed otter",
        "date": -1246384790,
        "latitude": 6.658614,
        "longitude": -72.733351,
        "priority": 0.68,
        "validated": true,
        "version": "6.9.6"
    },
    {
        "animal_name": "Sable antelope",
        "date": -957320419,
        "latitude": 7.450268,
        "longitude": 8.6091961,
        "priority": 0.59,
        "validated": false,
        "version": "8.8.1"
    },
    {
        "animal_name": "Carpet snake",
        "date": 672598167,
        "latitude": 50.3539899,
        "longitude": 19.4629659,
        "priority": 0.69,
        "validated": false,
        "version": "0.2.2"
    },
    {
        "animal_name": "Southern tamandua",
        "date": -385901381,
        "latitude": 43.4945737,
        "longitude": 5.8978018,
        "priority": 0.78,
        "validated": false,
        "version": "0.64"
    },
    {
        "animal_name": "Blue shark",
        "date": -1257923567,
        "latitude": -2.673867,
        "longitude": 139.7728757,
        "priority": 0.72,
        "validated": false,
        "version": "1.1.2"
    },
    {
        "animal_name": "Pademelon, red-legged",
        "date": -926620873,
        "latitude": 36.9923139,
        "longitude": -122.0581762,
        "priority": 0.67,
        "validated": true,
        "version": "0.2.9"
    },
    {
        "animal_name": "White-tailed deer",
        "date": -561859282,
        "latitude": 55.9840531,
        "longitude": 37.1619979,
        "priority": 0.81,
        "validated": false,
        "version": "0.2.5"
    },
    {
        "animal_name": "Sage hen",
        "date": -1304775352,
        "latitude": 49.8387221,
        "longitude": 35.6206178,
        "priority": 0.14,
        "validated": true,
        "version": "6.24"
    },
    {
        "animal_name": "Starling, superb",
        "date": -283024535,
        "latitude": 30.921373,
        "longitude": 118.784812,
        "priority": 0.3,
        "validated": false,
        "version": "4.7.1"
    },
    {
        "animal_name": "Turtle, snake-necked",
        "date": -549872257,
        "latitude": 1.350933,
        "longitude": -77.52387,
        "priority": 0.45,
        "validated": true,
        "version": "2.28"
    },
    {
        "animal_name": "Flycatcher, tyrant",
        "date": -501421779,
        "latitude": -7.2510084,
        "longitude": 106.9600711,
        "priority": 0.14,
        "validated": false,
        "version": "6.59"
    },
    {
        "animal_name": "Mongoose, yellow",
        "date": 477815380,
        "latitude": -33.8807097,
        "longitude": -57.3694285,
        "priority": 0.31,
        "validated": false,
        "version": "1.91"
    },
    {
        "animal_name": "Finch, common melba",
        "date": -589621983,
        "latitude": 11.9404192,
        "longitude": 108.4583132,
        "priority": 0.85,
        "validated": false,
        "version": "8.57"
    },
    {
        "animal_name": "Leadbeateri's ground hornbill",
        "date": -1046376054,
        "latitude": 53.3004898,
        "longitude": -6.2634596,
        "priority": 0.79,
        "validated": false,
        "version": "6.72"
    },
    {
        "animal_name": "Kori bustard",
        "date": -339290363,
        "latitude": 15.41667,
        "longitude": -87.6,
        "priority": 0.22,
        "validated": false,
        "version": "0.5.8"
    },
    {
        "animal_name": "Macaw, green-winged",
        "date": -121361783,
        "latitude": -23.3969772,
        "longitude": -46.9995522,
        "priority": 0.18,
        "validated": true,
        "version": "0.1.5"
    },
    {
        "animal_name": "Tern, royal",
        "date": -1517620749,
        "latitude": 49.03353,
        "longitude": 2.0768291,
        "priority": 0.17,
        "validated": false,
        "version": "5.3.1"
    },
    {
        "animal_name": "Duck, comb",
        "date": -1659037453,
        "latitude": 54.4168102,
        "longitude": 27.2930165,
        "priority": 0.4,
        "validated": true,
        "version": "0.18"
    },
    {
        "animal_name": "Anteater, giant",
        "date": -919869708,
        "latitude": 45.5246959,
        "longitude": 13.8311208,
        "priority": 0.19,
        "validated": false,
        "version": "0.9.3"
    },
    {
        "animal_name": "Ibis, puna",
        "date": -2007766100,
        "latitude": 52.406614,
        "longitude": 22.2424971,
        "priority": 0.4,
        "validated": true,
        "version": "1.2.1"
    },
    {
        "animal_name": "Crake, african black",
        "date": 174989089,
        "latitude": 31.463475,
        "longitude": 120.649341,
        "priority": 0.86,
        "validated": false,
        "version": "0.89"
    },
    {
        "animal_name": "Honey badger",
        "date": 836444460,
        "latitude": 47.9527415,
        "longitude": 21.6927245,
        "priority": 0.35,
        "validated": true,
        "version": "9.8.9"
    },
    {
        "animal_name": "Eastern dwarf mongoose",
        "date": -1857685001,
        "latitude": -45.8732238,
        "longitude": -67.5018975,
        "priority": 0.57,
        "validated": false,
        "version": "3.5.9"
    },
    {
        "animal_name": "Kangaroo, black-faced",
        "date": -227353491,
        "latitude": -34.6143841,
        "longitude": -58.4708749,
        "priority": 0.47,
        "validated": true,
        "version": "3.0"
    },
    {
        "animal_name": "Pintail, bahama",
        "date": -1628259496,
        "latitude": -6.6769374,
        "longitude": 107.0244171,
        "priority": 0.34,
        "validated": true,
        "version": "7.19"
    },
    {
        "animal_name": "Common zorro",
        "date": -1647606204,
        "latitude": -38.0033365,
        "longitude": -57.5430848,
        "priority": 0.54,
        "validated": true,
        "version": "2.96"
    },
    {
        "animal_name": "Owl, australian masked",
        "date": 839742049,
        "latitude": 25.075889,
        "longitude": 111.655839,
        "priority": 0.19,
        "validated": true,
        "version": "9.80"
    },
    {
        "animal_name": "Flightless cormorant",
        "date": -248952661,
        "latitude": -6.6769374,
        "longitude": 107.0244171,
        "priority": 0.2,
        "validated": false,
        "version": "2.6"
    },
    {
        "animal_name": "Cape wild cat",
        "date": -2106722571,
        "latitude": -14.3562,
        "longitude": -75.6769489,
        "priority": 0.79,
        "validated": true,
        "version": "0.31"
    },
    {
        "animal_name": "Kingfisher, malachite",
        "date": -811378845,
        "latitude": 31.228026,
        "longitude": 121.454211,
        "priority": 0.26,
        "validated": true,
        "version": "0.6.3"
    },
    {
        "animal_name": "Yellow-necked spurfowl",
        "date": 143091578,
        "latitude": -9.7464338,
        "longitude": 124.4309165,
        "priority": 0.58,
        "validated": true,
        "version": "6.66"
    },
    {
        "animal_name": "Cat, african wild",
        "date": -228855856,
        "latitude": 23.07555,
        "longitude": 112.007814,
        "priority": 0.39,
        "validated": true,
        "version": "7.6"
    },
    {
        "animal_name": "Javan gold-spotted mongoose",
        "date": -270107158,
        "latitude": 55.900378,
        "longitude": 37.387813,
        "priority": 0.21,
        "validated": true,
        "version": "9.0"
    },
    {
        "animal_name": "Dolphin, bottle-nose",
        "date": -1632415412,
        "latitude": 15.610054,
        "longitude": 105.019512,
        "priority": 0.54,
        "validated": false,
        "version": "9.3"
    },
    {
        "animal_name": "Reedbuck, bohor",
        "date": -1483572673,
        "latitude": -7.8307181,
        "longitude": 110.6338382,
        "priority": 0.17,
        "validated": true,
        "version": "0.9.2"
    },
    {
        "animal_name": "Yellow-throated sandgrouse",
        "date": -976303842,
        "latitude": 26.272008,
        "longitude": 118.882455,
        "priority": 0.37,
        "validated": false,
        "version": "6.0"
    },
    {
        "animal_name": "Wallaby, dama",
        "date": 169377869,
        "latitude": 47.9962116,
        "longitude": -4.1020654,
        "priority": 0.85,
        "validated": false,
        "version": "1.52"
    },
    {
        "animal_name": "Squirrel, african bush",
        "date": -1732656831,
        "latitude": 35.1001601,
        "longitude": 137.554138,
        "priority": 0.87,
        "validated": false,
        "version": "5.66"
    },
    {
        "animal_name": "Eurasian beaver",
        "date": -1416650442,
        "latitude": 18.8782625,
        "longitude": -71.5036905,
        "priority": 0.25,
        "validated": false,
        "version": "5.1.8"
    },
    {
        "animal_name": "Coqui partridge",
        "date": -1456084996,
        "latitude": -9.906,
        "longitude": 124.5313,
        "priority": 0.13,
        "validated": true,
        "version": "1.3.6"
    },
    {
        "animal_name": "Stork, painted",
        "date": -689252867,
        "latitude": 51.883,
        "longitude": 4.3577,
        "priority": 0.4,
        "validated": true,
        "version": "3.1.2"
    },
    {
        "animal_name": "Antechinus, brown",
        "date": -693730621,
        "latitude": 31.036218,
        "longitude": 120.921726,
        "priority": 0.68,
        "validated": false,
        "version": "7.9"
    },
    {
        "animal_name": "Buffalo, wild water",
        "date": 547779510,
        "latitude": 12.9290069,
        "longitude": -85.9151211,
        "priority": 0.15,
        "validated": false,
        "version": "7.99"
    },
    {
        "animal_name": "Pronghorn",
        "date": -1999382827,
        "latitude": 0.5695252,
        "longitude": 34.5583766,
        "priority": 0.12,
        "validated": false,
        "version": "0.2.2"
    },
    {
        "animal_name": "Sheep, american bighorn",
        "date": -961124234,
        "latitude": 46.4144282,
        "longitude": 37.9579616,
        "priority": 0.69,
        "validated": true,
        "version": "0.6.1"
    },
    {
        "animal_name": "Black-tailed tree creeper",
        "date": -1132992980,
        "latitude": 63.8351385,
        "longitude": -21.0606971,
        "priority": 0.4,
        "validated": false,
        "version": "3.8"
    },
    {
        "animal_name": "Roseat flamingo",
        "date": 870735041,
        "latitude": 45.212088,
        "longitude": 130.478187,
        "priority": 0.8,
        "validated": false,
        "version": "5.29"
    },
    {
        "animal_name": "Chipmunk, least",
        "date": -1372958122,
        "latitude": 38.453095,
        "longitude": 114.600138,
        "priority": 0.52,
        "validated": true,
        "version": "7.9.7"
    },
    {
        "animal_name": "Kangaroo, red",
        "date": -1807895714,
        "latitude": -2.9001285,
        "longitude": -79.0058965,
        "priority": 0.63,
        "validated": true,
        "version": "6.8"
    },
    {
        "animal_name": "European stork",
        "date": -1434613273,
        "latitude": 49.5508417,
        "longitude": 23.1084348,
        "priority": 0.26,
        "validated": true,
        "version": "9.70"
    },
    {
        "animal_name": "Emerald-spotted wood dove",
        "date": -1279841266,
        "latitude": 36.1364291,
        "longitude": 139.3741999,
        "priority": 0.53,
        "validated": true,
        "version": "4.5"
    },
    {
        "animal_name": "Sarus crane",
        "date": -2073297762,
        "latitude": 48.7233569,
        "longitude": 14.6338236,
        "priority": 0.25,
        "validated": false,
        "version": "0.2.5"
    },
    {
        "animal_name": "Penguin, little blue",
        "date": -73574645,
        "latitude": 7.6,
        "longitude": -80.733333,
        "priority": 0.43,
        "validated": true,
        "version": "0.6.3"
    },
    {
        "animal_name": "Squirrel, antelope ground",
        "date": -1189287063,
        "latitude": 36.075651,
        "longitude": 120.412392,
        "priority": 0.77,
        "validated": false,
        "version": "2.7.6"
    },
    {
        "animal_name": "Tokay gecko",
        "date": -1295698917,
        "latitude": 56.16667,
        "longitude": 22.1,
        "priority": 0.22,
        "validated": true,
        "version": "0.20"
    },
    {
        "animal_name": "Tarantula, salmon pink bird eater",
        "date": -251747373,
        "latitude": 12.1392352,
        "longitude": 104.5655273,
        "priority": 0.85,
        "validated": true,
        "version": "0.5.5"
    },
    {
        "animal_name": "Fox, grey",
        "date": -1784108584,
        "latitude": -14.5656065,
        "longitude": 40.6854309,
        "priority": 0.77,
        "validated": true,
        "version": "0.87"
    },
    {
        "animal_name": "Collared lemming",
        "date": 50662251,
        "latitude": -7.8100327,
        "longitude": 110.3592495,
        "priority": 0.17,
        "validated": true,
        "version": "0.8.2"
    },
    {
        "animal_name": "Polar bear",
        "date": -852755491,
        "latitude": 32.3295438,
        "longitude": 49.0943433,
        "priority": 0.79,
        "validated": true,
        "version": "1.3"
    },
    {
        "animal_name": "Bengal vulture",
        "date": 190008320,
        "latitude": -22.5506487,
        "longitude": -48.5787728,
        "priority": 0.58,
        "validated": true,
        "version": "1.75"
    },
    {
        "animal_name": "Kingfisher, pied",
        "date": 776268549,
        "latitude": 47.9523565,
        "longitude": 20.3586957,
        "priority": 0.69,
        "validated": true,
        "version": "5.1.5"
    },
    {
        "animal_name": "Red hartebeest",
        "date": 153781856,
        "latitude": 38.8822689,
        "longitude": -77.142764,
        "priority": 0.63,
        "validated": true,
        "version": "0.97"
    },
    {
        "animal_name": "Marshbird, brown and yellow",
        "date": -774514143,
        "latitude": 59.9026039,
        "longitude": 10.767309,
        "priority": 0.68,
        "validated": true,
        "version": "0.73"
    },
    {
        "animal_name": "Wallaby, dama",
        "date": -1419830700,
        "latitude": 34.1446313,
        "longitude": 134.5525475,
        "priority": 0.83,
        "validated": false,
        "version": "3.8"
    },
    {
        "animal_name": "Wallaby, tammar",
        "date": -1294578766,
        "latitude": 38.8774735,
        "longitude": -9.2788217,
        "priority": 0.67,
        "validated": false,
        "version": "1.4"
    },
    {
        "animal_name": "Green heron",
        "date": -535856836,
        "latitude": 7.7321516,
        "longitude": 8.539144,
        "priority": 0.71,
        "validated": true,
        "version": "0.3.1"
    },
    {
        "animal_name": "Common rhea",
        "date": 856515716,
        "latitude": 47.7277191,
        "longitude": 96.8461337,
        "priority": 0.7,
        "validated": true,
        "version": "1.7.1"
    },
    {
        "animal_name": "Stick insect",
        "date": -687888328,
        "latitude": 21.3410625,
        "longitude": 105.0089888,
        "priority": 0.43,
        "validated": true,
        "version": "0.8.3"
    },
    {
        "animal_name": "Yellow-necked spurfowl",
        "date": -997022483,
        "latitude": 8.2796966,
        "longitude": -70.109113,
        "priority": 0.74,
        "validated": true,
        "version": "2.19"
    },
    {
        "animal_name": "Common genet",
        "date": 797643429,
        "latitude": 69.0474473,
        "longitude": 33.2898473,
        "priority": 0.11,
        "validated": false,
        "version": "0.2.9"
    },
    {
        "animal_name": "Stick insect",
        "date": -552824787,
        "latitude": -7.4782808,
        "longitude": -69.8597406,
        "priority": 0.12,
        "validated": true,
        "version": "2.7"
    },
    {
        "animal_name": "Long-finned pilot whale",
        "date": 180678513,
        "latitude": 42.6586378,
        "longitude": 18.1013637,
        "priority": 0.73,
        "validated": false,
        "version": "0.7.7"
    },
    {
        "animal_name": "Purple moorhen",
        "date": 886647275,
        "latitude": 29.770279,
        "longitude": 84.03153,
        "priority": 0.54,
        "validated": true,
        "version": "3.2"
    },
    {
        "animal_name": "Hartebeest, coke's",
        "date": -1935397901,
        "latitude": 31.5233543,
        "longitude": 73.2571865,
        "priority": 0.39,
        "validated": true,
        "version": "6.2"
    },
    {
        "animal_name": "Amazon parrot (unidentified)",
        "date": -1181777535,
        "latitude": 18.1559131,
        "longitude": -77.7652346,
        "priority": 0.2,
        "validated": false,
        "version": "8.11"
    },
    {
        "animal_name": "Racer snake",
        "date": -1087043191,
        "latitude": 42.3745311,
        "longitude": -88.1263369,
        "priority": 0.26,
        "validated": false,
        "version": "4.7.7"
    },
    {
        "animal_name": "Rhinoceros, white",
        "date": 820138736,
        "latitude": 48.9706758,
        "longitude": 89.9678382,
        "priority": 0.26,
        "validated": false,
        "version": "0.39"
    },
    {
        "animal_name": "Bustard, stanley",
        "date": -1671554200,
        "latitude": 27.578926,
        "longitude": 110.040315,
        "priority": 0.62,
        "validated": true,
        "version": "3.9.9"
    },
    {
        "animal_name": "Lion, california sea",
        "date": 594725130,
        "latitude": 54.1491581,
        "longitude": 91.8814443,
        "priority": 0.55,
        "validated": false,
        "version": "0.2.6"
    },
    {
        "animal_name": "Viper, egyptian",
        "date": -1309137138,
        "latitude": -2.389643,
        "longitude": 112.907402,
        "priority": 0.7,
        "validated": false,
        "version": "0.4.7"
    },
    {
        "animal_name": "Azara's zorro",
        "date": -65101622,
        "latitude": 10.3385626,
        "longitude": 122.9316044,
        "priority": 0.5,
        "validated": false,
        "version": "0.73"
    },
    {
        "animal_name": "Sheep, stone",
        "date": -839185270,
        "latitude": 29.744095,
        "longitude": 117.217373,
        "priority": 0.49,
        "validated": false,
        "version": "6.2.6"
    },
    {
        "animal_name": "Tawny eagle",
        "date": -802108981,
        "latitude": -6.6765389,
        "longitude": 111.0549826,
        "priority": 0.55,
        "validated": false,
        "version": "0.7.3"
    },
    {
        "animal_name": "Parrot, hawk-headed",
        "date": -1247315835,
        "latitude": 5.9840985,
        "longitude": 116.0761121,
        "priority": 0.22,
        "validated": false,
        "version": "8.5.3"
    },
    {
        "animal_name": "Stork, saddle-billed",
        "date": -342647513,
        "latitude": 27.5277132,
        "longitude": 57.8651371,
        "priority": 0.19,
        "validated": false,
        "version": "9.5.5"
    },
    {
        "animal_name": "Curve-billed thrasher",
        "date": 288886352,
        "latitude": 19.6938888,
        "longitude": -99.2591666,
        "priority": 0.19,
        "validated": false,
        "version": "3.6.0"
    },
    {
        "animal_name": "Spurfowl, yellow-necked",
        "date": -32942208,
        "latitude": -7.4111208,
        "longitude": 108.1221146,
        "priority": 0.52,
        "validated": true,
        "version": "7.8"
    },
    {
        "animal_name": "Heron, little",
        "date": 382550734,
        "latitude": 13.1782149,
        "longitude": 30.2166519,
        "priority": 0.88,
        "validated": true,
        "version": "2.1"
    },
    {
        "animal_name": "Knob-nosed goose",
        "date": -778339214,
        "latitude": 37.73892,
        "longitude": 115.670177,
        "priority": 0.59,
        "validated": false,
        "version": "8.0"
    },
    {
        "animal_name": "Armadillo, common long-nosed",
        "date": 325453764,
        "latitude": 63.4416393,
        "longitude": 25.6450741,
        "priority": 0.84,
        "validated": true,
        "version": "3.7"
    },
    {
        "animal_name": "Frilled lizard",
        "date": 508298382,
        "latitude": -34.5244257,
        "longitude": -56.3908165,
        "priority": 0.24,
        "validated": false,
        "version": "0.4.6"
    },
    {
        "animal_name": "Sloth, two-toed",
        "date": -1042176026,
        "latitude": 5.934363,
        "longitude": -73.615679,
        "priority": 0.21,
        "validated": true,
        "version": "0.7.1"
    },
    {
        "animal_name": "Red lava crab",
        "date": -2131156886,
        "latitude": 38.4391281,
        "longitude": 23.8850944,
        "priority": 0.67,
        "validated": false,
        "version": "9.97"
    },
    {
        "animal_name": "Masked booby",
        "date": -1151305017,
        "latitude": 43.708681,
        "longitude": 45.2427175,
        "priority": 0.27,
        "validated": false,
        "version": "0.1.9"
    },
    {
        "animal_name": "Yellow mongoose",
        "date": -1757987126,
        "latitude": 48.887593,
        "longitude": 30.7044131,
        "priority": 0.79,
        "validated": false,
        "version": "5.3"
    },
    {
        "animal_name": "Least chipmunk",
        "date": -54274716,
        "latitude": 56.0895859,
        "longitude": 63.672798,
        "priority": 0.3,
        "validated": true,
        "version": "6.7.0"
    },
    {
        "animal_name": "Bustard, denham's",
        "date": 229594368,
        "latitude": 40.7346601,
        "longitude": -8.3694671,
        "priority": 0.64,
        "validated": false,
        "version": "0.32"
    },
    {
        "animal_name": "American buffalo",
        "date": -1918991838,
        "latitude": 48.0514345,
        "longitude": 39.9041695,
        "priority": 0.72,
        "validated": false,
        "version": "0.55"
    },
    {
        "animal_name": "Japanese macaque",
        "date": -1750825724,
        "latitude": 22.521523,
        "longitude": 114.055023,
        "priority": 0.66,
        "validated": false,
        "version": "4.6.4"
    },
    {
        "animal_name": "Squirrel, smith's bush",
        "date": -908053743,
        "latitude": 57.330777,
        "longitude": 23.102146,
        "priority": 0.14,
        "validated": true,
        "version": "0.5.5"
    },
    {
        "animal_name": "Flicker, campo",
        "date": -1589043663,
        "latitude": 14.7342524,
        "longitude": 121.0702642,
        "priority": 0.75,
        "validated": false,
        "version": "0.7.0"
    },
    {
        "animal_name": "Red-shouldered glossy starling",
        "date": -2141707778,
        "latitude": 9.5842012,
        "longitude": -5.1953554,
        "priority": 0.64,
        "validated": true,
        "version": "0.3.3"
    },
    {
        "animal_name": "Frogmouth, tawny",
        "date": 374335009,
        "latitude": 14.0023717,
        "longitude": 121.8952135,
        "priority": 0.21,
        "validated": false,
        "version": "0.6.9"
    },
    {
        "animal_name": "Armadillo, nine-banded",
        "date": 179491572,
        "latitude": 53.76686,
        "longitude": -112.80195,
        "priority": 0.88,
        "validated": false,
        "version": "0.27"
    },
    {
        "animal_name": "Pintail, white-cheeked",
        "date": -1570223352,
        "latitude": 22.9856091,
        "longitude": -80.5855038,
        "priority": 0.17,
        "validated": true,
        "version": "0.8.4"
    },
    {
        "animal_name": "Golden brush-tailed possum",
        "date": 634631503,
        "latitude": 6.4387946,
        "longitude": 100.1947477,
        "priority": 0.59,
        "validated": true,
        "version": "0.73"
    },
    {
        "animal_name": "Komodo dragon",
        "date": -1349056988,
        "latitude": 40.5566629,
        "longitude": -8.5821839,
        "priority": 0.72,
        "validated": false,
        "version": "0.36"
    },
    {
        "animal_name": "Royal tern",
        "date": -892228452,
        "latitude": -22.5077597,
        "longitude": -44.0947303,
        "priority": 0.72,
        "validated": true,
        "version": "8.00"
    },
    {
        "animal_name": "Mandras tree shrew",
        "date": -41187516,
        "latitude": 40.024639,
        "longitude": 122.711528,
        "priority": 0.17,
        "validated": false,
        "version": "2.57"
    },
    {
        "animal_name": "Seal, northern fur",
        "date": -2094705460,
        "latitude": 57.7818019,
        "longitude": 14.1268727,
        "priority": 0.36,
        "validated": true,
        "version": "9.9"
    },
    {
        "animal_name": "Flycatcher, tyrant",
        "date": -945572812,
        "latitude": 23.30324,
        "longitude": 57.52459,
        "priority": 0.44,
        "validated": true,
        "version": "1.2"
    },
    {
        "animal_name": "Crake, african black",
        "date": -1483171032,
        "latitude": 59.341383,
        "longitude": 18.0585213,
        "priority": 0.27,
        "validated": true,
        "version": "6.12"
    },
    {
        "animal_name": "Black-throated cardinal",
        "date": -1357873556,
        "latitude": 40.7929026,
        "longitude": 43.8464971,
        "priority": 0.15,
        "validated": false,
        "version": "0.4.1"
    },
    {
        "animal_name": "Cat, tiger",
        "date": 436387845,
        "latitude": 42.0275439,
        "longitude": 23.9915523,
        "priority": 0.19,
        "validated": true,
        "version": "9.2.3"
    },
    {
        "animal_name": "South American meadowlark (unidentified)",
        "date": -1954337643,
        "latitude": 32.509155,
        "longitude": 120.127934,
        "priority": 0.42,
        "validated": true,
        "version": "8.65"
    },
    {
        "animal_name": "Creeper, black-tailed tree",
        "date": -1329258597,
        "latitude": 21.6936233,
        "longitude": -78.6313624,
        "priority": 0.21,
        "validated": true,
        "version": "9.65"
    },
    {
        "animal_name": "Yellow mongoose",
        "date": -1187023732,
        "latitude": 40.4210295,
        "longitude": 20.2616268,
        "priority": 0.4,
        "validated": false,
        "version": "8.2"
    },
    {
        "animal_name": "Blue-breasted cordon bleu",
        "date": -338946530,
        "latitude": 19.3803931,
        "longitude": -99.1476908,
        "priority": 0.61,
        "validated": false,
        "version": "9.0.5"
    },
    {
        "animal_name": "Dove, rock",
        "date": -1539992127,
        "latitude": -25.6801783,
        "longitude": -53.5419225,
        "priority": 0.62,
        "validated": false,
        "version": "6.4.3"
    },
    {
        "animal_name": "Anteater, australian spiny",
        "date": 367355972,
        "latitude": 40.3306084,
        "longitude": 21.7886602,
        "priority": 0.52,
        "validated": true,
        "version": "2.2"
    },
    {
        "animal_name": "Lion, african",
        "date": -997825863,
        "latitude": 49.555456,
        "longitude": 6.3315676,
        "priority": 0.16,
        "validated": false,
        "version": "0.6.0"
    },
    {
        "animal_name": "Hyrax",
        "date": -1695091593,
        "latitude": 41.0832289,
        "longitude": -7.8225565,
        "priority": 0.64,
        "validated": false,
        "version": "2.07"
    },
    {
        "animal_name": "Silver-backed fox",
        "date": 130653720,
        "latitude": 25.4166153,
        "longitude": -100.1591213,
        "priority": 0.68,
        "validated": false,
        "version": "1.4"
    },
    {
        "animal_name": "Pintail, bahama",
        "date": -205869428,
        "latitude": -7.0031703,
        "longitude": 112.545369,
        "priority": 0.27,
        "validated": false,
        "version": "1.0"
    },
    {
        "animal_name": "Bontebok",
        "date": -395654769,
        "latitude": -4.4008685,
        "longitude": -68.5247149,
        "priority": 0.15,
        "validated": false,
        "version": "0.8.2"
    },
    {
        "animal_name": "Weaver, chestnut",
        "date": 510118533,
        "latitude": 45.0098,
        "longitude": 41.1512,
        "priority": 0.14,
        "validated": false,
        "version": "1.0"
    },
    {
        "animal_name": "Four-spotted skimmer",
        "date": -1621315437,
        "latitude": 20.9874938,
        "longitude": -77.4185584,
        "priority": 0.85,
        "validated": true,
        "version": "9.5.2"
    },
    {
        "animal_name": "Sportive lemur",
        "date": 422663402,
        "latitude": 46.5217941,
        "longitude": 6.0221735,
        "priority": 0.56,
        "validated": true,
        "version": "8.9.4"
    },
    {
        "animal_name": "Blue-tongued skink",
        "date": -1837755165,
        "latitude": 5.255183,
        "longitude": 96.06085,
        "priority": 0.17,
        "validated": true,
        "version": "1.3"
    },
    {
        "animal_name": "Tasmanian devil",
        "date": 237127023,
        "latitude": -31.3350093,
        "longitude": -64.2951643,
        "priority": 0.33,
        "validated": false,
        "version": "8.38"
    },
    {
        "animal_name": "American beaver",
        "date": 526631065,
        "latitude": 39.014268,
        "longitude": -94.4027782,
        "priority": 0.1,
        "validated": true,
        "version": "0.65"
    },
    {
        "animal_name": "Ass, asiatic wild",
        "date": -107023093,
        "latitude": 36.2569423,
        "longitude": 139.381182,
        "priority": 0.27,
        "validated": true,
        "version": "0.1.8"
    },
    {
        "animal_name": "Goose, knob-nosed",
        "date": -469862122,
        "latitude": 14.3745863,
        "longitude": 120.8733403,
        "priority": 0.2,
        "validated": false,
        "version": "9.0.3"
    },
    {
        "animal_name": "Jackal, golden",
        "date": -1630198271,
        "latitude": 22.4076256,
        "longitude": -83.8473015,
        "priority": 0.83,
        "validated": true,
        "version": "8.2.3"
    },
    {
        "animal_name": "Short-beaked echidna",
        "date": -2005031525,
        "latitude": 42.871502,
        "longitude": 127.501873,
        "priority": 0.64,
        "validated": true,
        "version": "5.4.1"
    },
    {
        "animal_name": "Long-tailed spotted cat",
        "date": -759946651,
        "latitude": 40.6998888,
        "longitude": -73.8076421,
        "priority": 0.25,
        "validated": true,
        "version": "7.4"
    },
    {
        "animal_name": "Porcupine, tree",
        "date": -1733889653,
        "latitude": 10.4009358,
        "longitude": 106.22868,
        "priority": 0.11,
        "validated": true,
        "version": "4.8"
    },
    {
        "animal_name": "Pelican, great white",
        "date": -428622911,
        "latitude": 40.4476834,
        "longitude": 25.5917918,
        "priority": 0.26,
        "validated": true,
        "version": "5.0.1"
    },
    {
        "animal_name": "Screamer, crested",
        "date": 244733058,
        "latitude": 39.7024946,
        "longitude": -8.7377503,
        "priority": 0.15,
        "validated": true,
        "version": "1.03"
    },
    {
        "animal_name": "Waxbill, black-cheeked",
        "date": -1720711803,
        "latitude": 30.02598,
        "longitude": 111.850777,
        "priority": 0.27,
        "validated": false,
        "version": "3.14"
    },
    {
        "animal_name": "Nine-banded armadillo",
        "date": 786995512,
        "latitude": 8.9282133,
        "longitude": -74.5697617,
        "priority": 0.32,
        "validated": false,
        "version": "0.9.9"
    },
    {
        "animal_name": "Mongoose, yellow",
        "date": -1313052716,
        "latitude": -7.683333,
        "longitude": 109.883333,
        "priority": 0.11,
        "validated": false,
        "version": "9.16"
    },
    {
        "animal_name": "American bison",
        "date": 717484189,
        "latitude": 49.1095977,
        "longitude": 142.9448251,
        "priority": 0.24,
        "validated": true,
        "version": "4.2"
    },
    {
        "animal_name": "Siskin, yellow-rumped",
        "date": -746217211,
        "latitude": -8.5135139,
        "longitude": -35.3747515,
        "priority": 0.4,
        "validated": false,
        "version": "6.92"
    },
    {
        "animal_name": "Komodo dragon",
        "date": -191592866,
        "latitude": -23.1067087,
        "longitude": -48.6123867,
        "priority": 0.25,
        "validated": false,
        "version": "0.3.9"
    },
    {
        "animal_name": "Striated heron",
        "date": -307217424,
        "latitude": 48.8459103,
        "longitude": 106.4515929,
        "priority": 0.36,
        "validated": true,
        "version": "0.25"
    },
    {
        "animal_name": "Wild boar",
        "date": -698631318,
        "latitude": -7.2575,
        "longitude": 112.7674,
        "priority": 0.33,
        "validated": true,
        "version": "0.1.2"
    },
    {
        "animal_name": "Greater roadrunner",
        "date": -128980252,
        "latitude": 9.2217178,
        "longitude": -65.9794807,
        "priority": 0.64,
        "validated": true,
        "version": "8.8.3"
    },
    {
        "animal_name": "Lemur, brown",
        "date": 950946078,
        "latitude": 24.020975,
        "longitude": 88.9922341,
        "priority": 0.15,
        "validated": false,
        "version": "0.70"
    },
    {
        "animal_name": "Stork, white",
        "date": -1099002247,
        "latitude": -12.4,
        "longitude": -74.7,
        "priority": 0.21,
        "validated": true,
        "version": "0.19"
    },
    {
        "animal_name": "Lizard (unidentified)",
        "date": -1841477715,
        "latitude": -22.7338724,
        "longitude": -45.1201112,
        "priority": 0.31,
        "validated": true,
        "version": "6.8.9"
    },
    {
        "animal_name": "Kookaburra, laughing",
        "date": -125652274,
        "latitude": 22.656408,
        "longitude": 114.019351,
        "priority": 0.11,
        "validated": true,
        "version": "0.2.4"
    },
    {
        "animal_name": "Jackal, silver-backed",
        "date": 742476326,
        "latitude": 49.8687831,
        "longitude": 16.9274876,
        "priority": 0.21,
        "validated": false,
        "version": "4.61"
    },
    {
        "animal_name": "Blue peacock",
        "date": 197603556,
        "latitude": 23.101893,
        "longitude": 113.297193,
        "priority": 0.55,
        "validated": true,
        "version": "0.29"
    },
    {
        "animal_name": "African black crake",
        "date": -1596348365,
        "latitude": -6.2074293,
        "longitude": 106.8915948,
        "priority": 0.61,
        "validated": true,
        "version": "3.4.2"
    },
    {
        "animal_name": "Superb starling",
        "date": -212793546,
        "latitude": -13.02483,
        "longitude": -74.448357,
        "priority": 0.24,
        "validated": true,
        "version": "0.50"
    },
    {
        "animal_name": "Eastern boa constrictor",
        "date": -1811938410,
        "latitude": 10.297315,
        "longitude": 123.89885,
        "priority": 0.35,
        "validated": true,
        "version": "0.45"
    },
    {
        "animal_name": "Skimmer, four-spotted",
        "date": -554677468,
        "latitude": 16.0765691,
        "longitude": 97.5843171,
        "priority": 0.46,
        "validated": false,
        "version": "8.7"
    },
    {
        "animal_name": "Goliath heron",
        "date": 66503109,
        "latitude": 34.8148172,
        "longitude": 135.7683696,
        "priority": 0.65,
        "validated": false,
        "version": "9.9.3"
    },
    {
        "animal_name": "Grenadier, purple",
        "date": -1318672501,
        "latitude": 30.7833,
        "longitude": 114.41144,
        "priority": 0.76,
        "validated": false,
        "version": "8.2.6"
    },
    {
        "animal_name": "Goliath heron",
        "date": -309825684,
        "latitude": -22.2528986,
        "longitude": -45.7049987,
        "priority": 0.15,
        "validated": true,
        "version": "3.26"
    },
    {
        "animal_name": "Agouti",
        "date": -1539671054,
        "latitude": 31.282641,
        "longitude": 120.392977,
        "priority": 0.2,
        "validated": true,
        "version": "3.67"
    },
    {
        "animal_name": "Bird, bare-faced go away",
        "date": 516265755,
        "latitude": -19.5728709,
        "longitude": 18.1072924,
        "priority": 0.24,
        "validated": true,
        "version": "7.2.6"
    },
    {
        "animal_name": "Cow, scottish highland",
        "date": -1100622215,
        "latitude": 22.198745,
        "longitude": 113.543873,
        "priority": 0.87,
        "validated": false,
        "version": "0.68"
    },
    {
        "animal_name": "Blue waxbill",
        "date": -690866926,
        "latitude": 39.5240063,
        "longitude": -8.5238901,
        "priority": 0.24,
        "validated": false,
        "version": "7.5"
    },
    {
        "animal_name": "Pale white-eye",
        "date": 767048796,
        "latitude": 39.207953,
        "longitude": 117.115904,
        "priority": 0.38,
        "validated": true,
        "version": "0.87"
    },
    {
        "animal_name": "Bandicoot, southern brown",
        "date": -1992944124,
        "latitude": 44.8990915,
        "longitude": 110.1065717,
        "priority": 0.49,
        "validated": false,
        "version": "1.0.9"
    },
    {
        "animal_name": "Springhare",
        "date": 193759091,
        "latitude": 28.189633,
        "longitude": 112.986397,
        "priority": 0.86,
        "validated": false,
        "version": "0.7.3"
    },
    {
        "animal_name": "Gull, lava",
        "date": -476611869,
        "latitude": 59.9871162,
        "longitude": 15.8125817,
        "priority": 0.43,
        "validated": false,
        "version": "8.31"
    },
    {
        "animal_name": "Galapagos tortoise",
        "date": 515170852,
        "latitude": 49.9521852,
        "longitude": 18.4800457,
        "priority": 0.74,
        "validated": true,
        "version": "3.36"
    },
    {
        "animal_name": "Ringtail",
        "date": -561549620,
        "latitude": 50.3448824,
        "longitude": 15.3606459,
        "priority": 0.44,
        "validated": false,
        "version": "9.69"
    },
    {
        "animal_name": "Galapagos mockingbird",
        "date": 360252548,
        "latitude": -10.05,
        "longitude": -76.166667,
        "priority": 0.69,
        "validated": false,
        "version": "8.8.9"
    },
    {
        "animal_name": "Long-nosed bandicoot",
        "date": -1706897587,
        "latitude": 43.7441795,
        "longitude": 2.511999,
        "priority": 0.12,
        "validated": true,
        "version": "0.6.8"
    },
    {
        "animal_name": "Bear, american black",
        "date": 376738048,
        "latitude": 41.6517775,
        "longitude": -83.5016887,
        "priority": 0.51,
        "validated": false,
        "version": "0.32"
    },
    {
        "animal_name": "Tenrec, tailless",
        "date": -114429725,
        "latitude": 41.186564,
        "longitude": 111.308664,
        "priority": 0.5,
        "validated": true,
        "version": "7.88"
    },
    {
        "animal_name": "Indian jackal",
        "date": -1680555635,
        "latitude": 13.1317415,
        "longitude": 121.435112,
        "priority": 0.26,
        "validated": true,
        "version": "2.6"
    },
    {
        "animal_name": "Greater sage grouse",
        "date": -670473621,
        "latitude": -10.1269585,
        "longitude": -63.8640569,
        "priority": 0.85,
        "validated": true,
        "version": "3.5"
    },
    {
        "animal_name": "Heron, boat-billed",
        "date": -588445226,
        "latitude": 58.1484742,
        "longitude": 14.7352235,
        "priority": 0.52,
        "validated": false,
        "version": "5.27"
    },
    {
        "animal_name": "Eastern diamondback rattlesnake",
        "date": -647050092,
        "latitude": 60.4125717,
        "longitude": 21.0435938,
        "priority": 0.46,
        "validated": false,
        "version": "0.69"
    },
    {
        "animal_name": "Goose, knob-nosed",
        "date": -1244513210,
        "latitude": 13.39028,
        "longitude": 43.96833,
        "priority": 0.42,
        "validated": false,
        "version": "0.5.8"
    },
    {
        "animal_name": "Heron, goliath",
        "date": 358812328,
        "latitude": 56.6444907,
        "longitude": 14.224297,
        "priority": 0.67,
        "validated": true,
        "version": "0.8.3"
    },
    {
        "animal_name": "Collared lemming",
        "date": -1641677023,
        "latitude": 37.9750066,
        "longitude": 140.2463811,
        "priority": 0.55,
        "validated": true,
        "version": "3.04"
    },
    {
        "animal_name": "Paddy heron (unidentified)",
        "date": 691115074,
        "latitude": 6.4968574,
        "longitude": 2.6288523,
        "priority": 0.59,
        "validated": false,
        "version": "0.23"
    },
    {
        "animal_name": "Capuchin, brown",
        "date": 519375782,
        "latitude": 57.007322,
        "longitude": 39.2695629,
        "priority": 0.85,
        "validated": true,
        "version": "3.0"
    },
    {
        "animal_name": "Cockatoo, long-billed",
        "date": 298217547,
        "latitude": 33.2771465,
        "longitude": 131.150964,
        "priority": 0.32,
        "validated": false,
        "version": "2.8"
    },
    {
        "animal_name": "Osprey",
        "date": -1882282869,
        "latitude": 37.022024,
        "longitude": 104.423539,
        "priority": 0.24,
        "validated": false,
        "version": "4.8"
    },
    {
        "animal_name": "Camel, dromedary",
        "date": -1902404310,
        "latitude": 23.365556,
        "longitude": 116.70345,
        "priority": 0.46,
        "validated": false,
        "version": "1.8.9"
    },
    {
        "animal_name": "Bandicoot, long-nosed",
        "date": 672465478,
        "latitude": -7.5347018,
        "longitude": 109.0274877,
        "priority": 0.2,
        "validated": false,
        "version": "7.9"
    },
    {
        "animal_name": "Rainbow lory",
        "date": 329575044,
        "latitude": 57.7184535,
        "longitude": 12.0083611,
        "priority": 0.77,
        "validated": false,
        "version": "0.21"
    },
    {
        "animal_name": "Cardinal, red-capped",
        "date": 650849127,
        "latitude": -8.5803424,
        "longitude": 116.3654707,
        "priority": 0.42,
        "validated": false,
        "version": "1.97"
    },
    {
        "animal_name": "Legaan, Monitor (unidentified)",
        "date": -1091018239,
        "latitude": 28.271297,
        "longitude": 87.128131,
        "priority": 0.65,
        "validated": true,
        "version": "8.24"
    },
    {
        "animal_name": "Shrike, southern white-crowned",
        "date": 913245626,
        "latitude": 15.4097396,
        "longitude": 104.9201205,
        "priority": 0.14,
        "validated": true,
        "version": "0.59"
    },
    {
        "animal_name": "Blue and yellow macaw",
        "date": 522946249,
        "latitude": 45.5322977,
        "longitude": 20.2153721,
        "priority": 0.88,
        "validated": false,
        "version": "2.3.5"
    },
    {
        "animal_name": "Badger, eurasian",
        "date": -1249046452,
        "latitude": 6.9791945,
        "longitude": 39.1803741,
        "priority": 0.82,
        "validated": false,
        "version": "5.0"
    },
    {
        "animal_name": "Skunk, striped",
        "date": -1454164628,
        "latitude": 5.5380625,
        "longitude": 46.3864672,
        "priority": 0.28,
        "validated": true,
        "version": "8.2.0"
    },
    {
        "animal_name": "Rhesus macaque",
        "date": 824615261,
        "latitude": -27.4413635,
        "longitude": -58.7832105,
        "priority": 0.34,
        "validated": true,
        "version": "4.06"
    },
    {
        "animal_name": "African fish eagle",
        "date": -1926030354,
        "latitude": -7.7285206,
        "longitude": 110.7897275,
        "priority": 0.39,
        "validated": false,
        "version": "8.9"
    },
    {
        "animal_name": "Bunting, crested",
        "date": 217379870,
        "latitude": -26.7277949,
        "longitude": -65.2739038,
        "priority": 0.33,
        "validated": true,
        "version": "0.6.2"
    },
    {
        "animal_name": "Hoary marmot",
        "date": -1869856658,
        "latitude": 35.2304671,
        "longitude": 24.9826973,
        "priority": 0.62,
        "validated": false,
        "version": "0.3.9"
    },
    {
        "animal_name": "Black-backed jackal",
        "date": -640708073,
        "latitude": -33.9162938,
        "longitude": -64.3897946,
        "priority": 0.48,
        "validated": false,
        "version": "7.2.3"
    },
    {
        "animal_name": "Onager",
        "date": -1771833443,
        "latitude": -13.8474624,
        "longitude": -172.0448001,
        "priority": 0.32,
        "validated": false,
        "version": "0.1.0"
    },
    {
        "animal_name": "Ring dove",
        "date": -398342178,
        "latitude": 37.039991,
        "longitude": 115.667208,
        "priority": 0.13,
        "validated": false,
        "version": "0.6.3"
    },
    {
        "animal_name": "Bird, bare-faced go away",
        "date": -2019241253,
        "latitude": 22.170437,
        "longitude": 111.791539,
        "priority": 0.86,
        "validated": false,
        "version": "0.64"
    },
    {
        "animal_name": "Dove, galapagos",
        "date": -679433689,
        "latitude": 30.20003,
        "longitude": 115.038835,
        "priority": 0.43,
        "validated": true,
        "version": "9.3.7"
    },
    {
        "animal_name": "Lemur, grey mouse",
        "date": -1581244183,
        "latitude": 42.1087161,
        "longitude": 21.4177608,
        "priority": 0.52,
        "validated": false,
        "version": "7.2.8"
    },
    {
        "animal_name": "Australian sea lion",
        "date": -247407626,
        "latitude": -34.588234,
        "longitude": -58.6876178,
        "priority": 0.37,
        "validated": true,
        "version": "0.2.8"
    },
    {
        "animal_name": "Cat, miner's",
        "date": -1077975877,
        "latitude": 37.08828,
        "longitude": 79.855399,
        "priority": 0.52,
        "validated": false,
        "version": "7.3"
    },
    {
        "animal_name": "White spoonbill",
        "date": -1576914875,
        "latitude": 61.5656107,
        "longitude": 25.1814985,
        "priority": 0.72,
        "validated": true,
        "version": "1.2.4"
    },
    {
        "animal_name": "Dingo",
        "date": -1793566750,
        "latitude": 5.082453,
        "longitude": -73.365046,
        "priority": 0.59,
        "validated": false,
        "version": "4.2.3"
    },
    {
        "animal_name": "Ostrich",
        "date": -1021810975,
        "latitude": 32.0947711,
        "longitude": 20.1879106,
        "priority": 0.79,
        "validated": true,
        "version": "2.6"
    },
    {
        "animal_name": "Heron, gray",
        "date": -577260298,
        "latitude": 22.654032,
        "longitude": 110.18122,
        "priority": 0.84,
        "validated": true,
        "version": "3.1"
    },
    {
        "animal_name": "Emerald-spotted wood dove",
        "date": -1386508001,
        "latitude": 31.254198,
        "longitude": 94.915316,
        "priority": 0.24,
        "validated": false,
        "version": "7.66"
    },
    {
        "animal_name": "Wolf, mexican",
        "date": -900148558,
        "latitude": -37.8136276,
        "longitude": 144.9630576,
        "priority": 0.28,
        "validated": true,
        "version": "3.4"
    },
    {
        "animal_name": "Pallas's fish eagle",
        "date": -1284490814,
        "latitude": 53.1991153,
        "longitude": 50.1031834,
        "priority": 0.85,
        "validated": false,
        "version": "0.88"
    },
    {
        "animal_name": "Coatimundi, white-nosed",
        "date": -140924780,
        "latitude": 29.722611,
        "longitude": 118.339653,
        "priority": 0.3,
        "validated": false,
        "version": "6.9"
    },
    {
        "animal_name": "Heron, green",
        "date": 438560281,
        "latitude": 34.8330915,
        "longitude": 137.230017,
        "priority": 0.8,
        "validated": false,
        "version": "0.8.6"
    },
    {
        "animal_name": "Spurfowl, yellow-necked",
        "date": -1469561807,
        "latitude": 41.2426773,
        "longitude": -7.5586322,
        "priority": 0.71,
        "validated": true,
        "version": "4.1"
    },
    {
        "animal_name": "Whale, long-finned pilot",
        "date": -807143216,
        "latitude": 58.4710363,
        "longitude": 16.3502006,
        "priority": 0.68,
        "validated": false,
        "version": "2.0"
    },
    {
        "animal_name": "Siskin, yellow-rumped",
        "date": -1137522489,
        "latitude": 36.158405,
        "longitude": 45.4759898,
        "priority": 0.31,
        "validated": false,
        "version": "5.5"
    },
    {
        "animal_name": "Lizard, giant girdled",
        "date": -1777381381,
        "latitude": 35.8042947,
        "longitude": 69.2877535,
        "priority": 0.81,
        "validated": false,
        "version": "0.2.8"
    },
    {
        "animal_name": "Rainbow lory",
        "date": 702988206,
        "latitude": 6.0312787,
        "longitude": 7.5626411,
        "priority": 0.72,
        "validated": true,
        "version": "0.21"
    },
    {
        "animal_name": "Trumpeter, green-winged",
        "date": -108262906,
        "latitude": 57.063557,
        "longitude": 27.9195,
        "priority": 0.37,
        "validated": true,
        "version": "0.63"
    },
    {
        "animal_name": "King vulture",
        "date": 720448062,
        "latitude": 40.3643523,
        "longitude": 70.8001028,
        "priority": 0.18,
        "validated": true,
        "version": "9.5"
    },
    {
        "animal_name": "Red-breasted cockatoo",
        "date": -956777229,
        "latitude": -2.9755226,
        "longitude": 119.7020606,
        "priority": 0.24,
        "validated": false,
        "version": "0.99"
    },
    {
        "animal_name": "Little grebe",
        "date": -1456044712,
        "latitude": 59.9451756,
        "longitude": 10.6392492,
        "priority": 0.68,
        "validated": false,
        "version": "8.04"
    },
    {
        "animal_name": "Hawk-eagle, crowned",
        "date": -599272262,
        "latitude": 44.0328,
        "longitude": 42.8813,
        "priority": 0.35,
        "validated": false,
        "version": "3.8.0"
    },
    {
        "animal_name": "Southern tamandua",
        "date": -1120491702,
        "latitude": 27.66787,
        "longitude": 106.883864,
        "priority": 0.89,
        "validated": true,
        "version": "1.3"
    },
    {
        "animal_name": "Snake, western patch-nosed",
        "date": 237693269,
        "latitude": 51.898029,
        "longitude": 21.6132509,
        "priority": 0.86,
        "validated": false,
        "version": "2.2"
    },
    {
        "animal_name": "White-faced whistling duck",
        "date": -2033143286,
        "latitude": 38.6037983,
        "longitude": -9.1672878,
        "priority": 0.68,
        "validated": false,
        "version": "1.8.1"
    },
    {
        "animal_name": "Hornbill, yellow-billed",
        "date": 536238623,
        "latitude": 56.1865953,
        "longitude": 42.1663109,
        "priority": 0.17,
        "validated": true,
        "version": "1.8"
    },
    {
        "animal_name": "Wambenger, red-tailed",
        "date": -1097004850,
        "latitude": -24.4748345,
        "longitude": -49.8956943,
        "priority": 0.69,
        "validated": false,
        "version": "8.0.8"
    },
    {
        "animal_name": "Swamp deer",
        "date": -1685044259,
        "latitude": 37.399373,
        "longitude": 110.691139,
        "priority": 0.66,
        "validated": true,
        "version": "1.68"
    },
    {
        "animal_name": "Antelope, four-horned",
        "date": 887207669,
        "latitude": 35.066619,
        "longitude": 116.311532,
        "priority": 0.45,
        "validated": true,
        "version": "0.88"
    },
    {
        "animal_name": "Stork, greater adjutant",
        "date": -1619082340,
        "latitude": -6.2311496,
        "longitude": 106.8274069,
        "priority": 0.49,
        "validated": false,
        "version": "0.91"
    },
    {
        "animal_name": "Cormorant (unidentified)",
        "date": -1661430000,
        "latitude": 40.04606,
        "longitude": 117.408306,
        "priority": 0.63,
        "validated": false,
        "version": "0.66"
    },
    {
        "animal_name": "Desert tortoise",
        "date": 535906910,
        "latitude": 43.82551,
        "longitude": 81.872025,
        "priority": 0.58,
        "validated": true,
        "version": "6.49"
    },
    {
        "animal_name": "Red kangaroo",
        "date": -804927524,
        "latitude": 49.794945,
        "longitude": 17.865273,
        "priority": 0.55,
        "validated": false,
        "version": "0.68"
    },
    {
        "animal_name": "Bare-faced go away bird",
        "date": -172926223,
        "latitude": 29.86548,
        "longitude": 116.328879,
        "priority": 0.5,
        "validated": true,
        "version": "1.39"
    },
    {
        "animal_name": "Mallard",
        "date": -91425412,
        "latitude": 50.6444579,
        "longitude": 13.835284,
        "priority": 0.38,
        "validated": true,
        "version": "5.85"
    },
    {
        "animal_name": "Seal, harbor",
        "date": -621537964,
        "latitude": 16.2725431,
        "longitude": 107.9394761,
        "priority": 0.15,
        "validated": true,
        "version": "0.6.9"
    },
    {
        "animal_name": "Crab, red lava",
        "date": -442426047,
        "latitude": -7.3945499,
        "longitude": 111.4901903,
        "priority": 0.53,
        "validated": true,
        "version": "0.8.3"
    },
    {
        "animal_name": "Red-billed hornbill",
        "date": -770016018,
        "latitude": 10.7179292,
        "longitude": 122.3066411,
        "priority": 0.74,
        "validated": false,
        "version": "9.33"
    },
    {
        "animal_name": "Currasow (unidentified)",
        "date": -1243846970,
        "latitude": 23.7247599,
        "longitude": 108.8076195,
        "priority": 0.54,
        "validated": false,
        "version": "0.9.5"
    },
    {
        "animal_name": "Screamer, crested",
        "date": -2151999381,
        "latitude": 38.414217,
        "longitude": 77.245761,
        "priority": 0.22,
        "validated": true,
        "version": "0.47"
    },
    {
        "animal_name": "Native cat",
        "date": -556715532,
        "latitude": 33.6435199,
        "longitude": 42.8253662,
        "priority": 0.58,
        "validated": true,
        "version": "6.07"
    },
    {
        "animal_name": "Goose, cape barren",
        "date": -318680823,
        "latitude": 34.0313411,
        "longitude": 131.3494901,
        "priority": 0.73,
        "validated": true,
        "version": "7.8"
    },
    {
        "animal_name": "Mouse, four-striped grass",
        "date": -136748964,
        "latitude": 62.9663709,
        "longitude": 27.6707397,
        "priority": 0.13,
        "validated": true,
        "version": "0.3.9"
    },
    {
        "animal_name": "Egret, snowy",
        "date": -2063298472,
        "latitude": 59.3257766,
        "longitude": 18.0470069,
        "priority": 0.45,
        "validated": false,
        "version": "9.3"
    },
    {
        "animal_name": "Greater flamingo",
        "date": -946693985,
        "latitude": 47.7526314,
        "longitude": -2.285174,
        "priority": 0.13,
        "validated": false,
        "version": "2.17"
    },
    {
        "animal_name": "Dove, ring",
        "date": -1302979972,
        "latitude": 1.973103,
        "longitude": 34.0641419,
        "priority": 0.89,
        "validated": true,
        "version": "4.1.5"
    },
    {
        "animal_name": "Caracal",
        "date": 133751752,
        "latitude": 49.8359632,
        "longitude": 16.795095,
        "priority": 0.67,
        "validated": true,
        "version": "2.6"
    },
    {
        "animal_name": "Pine siskin",
        "date": -41199873,
        "latitude": -6.9203,
        "longitude": 113.4257,
        "priority": 0.61,
        "validated": false,
        "version": "2.1.6"
    },
    {
        "animal_name": "Cat, ringtail",
        "date": -198171120,
        "latitude": -9.9876076,
        "longitude": 39.6982485,
        "priority": 0.49,
        "validated": true,
        "version": "4.1"
    },
    {
        "animal_name": "Glossy ibis",
        "date": 298641292,
        "latitude": 19.3947363,
        "longitude": -70.5263459,
        "priority": 0.37,
        "validated": false,
        "version": "6.1"
    },
    {
        "animal_name": "Madagascar fruit bat",
        "date": -1705550986,
        "latitude": 48.0347132,
        "longitude": 38.8114674,
        "priority": 0.77,
        "validated": true,
        "version": "0.5.9"
    },
    {
        "animal_name": "Tortoise, burmese black mountain",
        "date": -2054142793,
        "latitude": 15.5946516,
        "longitude": 120.7914484,
        "priority": 0.87,
        "validated": true,
        "version": "0.88"
    },
    {
        "animal_name": "Possum, western pygmy",
        "date": 835290888,
        "latitude": -7.1057357,
        "longitude": 108.7066398,
        "priority": 0.43,
        "validated": true,
        "version": "5.8"
    },
    {
        "animal_name": "Wallaby, river",
        "date": -2005709486,
        "latitude": 12.3434106,
        "longitude": -86.6762176,
        "priority": 0.49,
        "validated": false,
        "version": "3.99"
    },
    {
        "animal_name": "Collared peccary",
        "date": -260362660,
        "latitude": 30.605585,
        "longitude": 91.862132,
        "priority": 0.4,
        "validated": false,
        "version": "2.1"
    },
    {
        "animal_name": "Antelope, roan",
        "date": 513483381,
        "latitude": 46.7251598,
        "longitude": 4.936847,
        "priority": 0.22,
        "validated": true,
        "version": "7.3.2"
    },
    {
        "animal_name": "Thomson's gazelle",
        "date": -1347820177,
        "latitude": -9.5261154,
        "longitude": -77.5287792,
        "priority": 0.32,
        "validated": false,
        "version": "3.5.2"
    },
    {
        "animal_name": "Snake-necked turtle",
        "date": -1752033372,
        "latitude": 39.9225394,
        "longitude": 65.9214676,
        "priority": 0.39,
        "validated": false,
        "version": "4.0.0"
    },
    {
        "animal_name": "American crow",
        "date": 741429340,
        "latitude": 40.4776836,
        "longitude": 45.0525325,
        "priority": 0.86,
        "validated": false,
        "version": "0.75"
    },
    {
        "animal_name": "Crowned hawk-eagle",
        "date": 137283080,
        "latitude": -7.0240255,
        "longitude": -76.1327924,
        "priority": 0.79,
        "validated": false,
        "version": "0.2.6"
    },
    {
        "animal_name": "Brown lemur",
        "date": 87668306,
        "latitude": 19.3852368,
        "longitude": -98.9545512,
        "priority": 0.47,
        "validated": false,
        "version": "2.8"
    },
    {
        "animal_name": "Crake, african black",
        "date": 31251277,
        "latitude": -11.8991825,
        "longitude": 33.5923941,
        "priority": 0.35,
        "validated": false,
        "version": "0.22"
    },
    {
        "animal_name": "Rhinoceros, square-lipped",
        "date": -408759770,
        "latitude": -6.6063841,
        "longitude": 106.7617984,
        "priority": 0.55,
        "validated": true,
        "version": "0.6.8"
    },
    {
        "animal_name": "White-winged black tern",
        "date": -1990603968,
        "latitude": 40.1832322,
        "longitude": -8.554308,
        "priority": 0.14,
        "validated": false,
        "version": "6.13"
    },
    {
        "animal_name": "Bird, secretary",
        "date": -189718885,
        "latitude": -7.811056,
        "longitude": 108.438797,
        "priority": 0.4,
        "validated": true,
        "version": "6.3"
    },
    {
        "animal_name": "Weaver, chestnut",
        "date": -682634723,
        "latitude": 35.4957441,
        "longitude": 139.4480166,
        "priority": 0.64,
        "validated": false,
        "version": "7.08"
    },
    {
        "animal_name": "Sandgrouse, yellow-throated",
        "date": -1091488880,
        "latitude": -8.3837341,
        "longitude": 114.8982871,
        "priority": 0.79,
        "validated": false,
        "version": "7.98"
    },
    {
        "animal_name": "Flycatcher, tyrant",
        "date": -1521758159,
        "latitude": -6.2694214,
        "longitude": 14.2337805,
        "priority": 0.59,
        "validated": true,
        "version": "0.71"
    },
    {
        "animal_name": "Common mynah",
        "date": -959391182,
        "latitude": 11.160632,
        "longitude": 119.3978597,
        "priority": 0.42,
        "validated": false,
        "version": "3.0.0"
    },
    {
        "animal_name": "Boar, wild",
        "date": 916473276,
        "latitude": 40.457454,
        "longitude": 115.9706447,
        "priority": 0.66,
        "validated": true,
        "version": "0.16"
    },
    {
        "animal_name": "Kalahari scrub robin",
        "date": -222037697,
        "latitude": -23.1036632,
        "longitude": -46.7285093,
        "priority": 0.76,
        "validated": false,
        "version": "2.0.3"
    },
    {
        "animal_name": "Goldeneye, common",
        "date": -766301859,
        "latitude": 43.8947634,
        "longitude": 18.3723677,
        "priority": 0.7,
        "validated": false,
        "version": "0.3.6"
    },
    {
        "animal_name": "Western lowland gorilla",
        "date": -1920855431,
        "latitude": 13.6579053,
        "longitude": 102.5809026,
        "priority": 0.62,
        "validated": true,
        "version": "0.8.3"
    },
    {
        "animal_name": "Rock dove",
        "date": -765123607,
        "latitude": 27.33186,
        "longitude": 118.995179,
        "priority": 0.53,
        "validated": true,
        "version": "3.55"
    },
    {
        "animal_name": "Porcupine, indian",
        "date": -1610515610,
        "latitude": 49.8922979,
        "longitude": 19.621588,
        "priority": 0.63,
        "validated": false,
        "version": "0.8.3"
    },
    {
        "animal_name": "Hornbill, southern ground",
        "date": -853021270,
        "latitude": 14.8572534,
        "longitude": 120.6213379,
        "priority": 0.54,
        "validated": false,
        "version": "9.4"
    },
    {
        "animal_name": "Square-lipped rhinoceros",
        "date": 731914893,
        "latitude": 50.6091631,
        "longitude": 3.2344605,
        "priority": 0.36,
        "validated": false,
        "version": "9.4"
    },
    {
        "animal_name": "Rose-ringed parakeet",
        "date": -2103956606,
        "latitude": -17.3256545,
        "longitude": 49.36706,
        "priority": 0.83,
        "validated": true,
        "version": "3.9"
    },
    {
        "animal_name": "Siskin, pine",
        "date": -385513078,
        "latitude": 6.878872,
        "longitude": 126.169972,
        "priority": 0.89,
        "validated": true,
        "version": "8.5"
    },
    {
        "animal_name": "Mountain goat",
        "date": 415357802,
        "latitude": 45.1013124,
        "longitude": 14.1052162,
        "priority": 0.56,
        "validated": false,
        "version": "0.5.2"
    },
    {
        "animal_name": "Starfish, crown of thorns",
        "date": -819428584,
        "latitude": 50.494493,
        "longitude": 15.5150382,
        "priority": 0.73,
        "validated": true,
        "version": "0.7.7"
    },
    {
        "animal_name": "Eagle, bald",
        "date": -986427783,
        "latitude": -7.9553448,
        "longitude": 112.649662,
        "priority": 0.73,
        "validated": false,
        "version": "8.0.7"
    },
    {
        "animal_name": "Constrictor, eastern boa",
        "date": 152608029,
        "latitude": 50.104315,
        "longitude": 8.911141,
        "priority": 0.27,
        "validated": false,
        "version": "1.7.0"
    },
    {
        "animal_name": "Antelope, roan",
        "date": -919882204,
        "latitude": -20.2976178,
        "longitude": -40.2957768,
        "priority": 0.56,
        "validated": true,
        "version": "7.0.5"
    },
    {
        "animal_name": "Alpaca",
        "date": -830661927,
        "latitude": 57.7238408,
        "longitude": 12.0887312,
        "priority": 0.1,
        "validated": true,
        "version": "3.2.7"
    },
    {
        "animal_name": "Sungazer, yellow-brown",
        "date": -921381704,
        "latitude": 16.0432035,
        "longitude": 119.9370328,
        "priority": 0.64,
        "validated": false,
        "version": "4.44"
    },
    {
        "animal_name": "Topi",
        "date": -1524125944,
        "latitude": 8.27533,
        "longitude": -73.868176,
        "priority": 0.75,
        "validated": true,
        "version": "5.43"
    },
    {
        "animal_name": "Bear, polar",
        "date": -821956171,
        "latitude": 21.1881873,
        "longitude": 101.1504111,
        "priority": 0.37,
        "validated": false,
        "version": "0.6.0"
    },
    {
        "animal_name": "Palm squirrel",
        "date": 228478827,
        "latitude": 1.5837191,
        "longitude": 10.4705682,
        "priority": 0.84,
        "validated": false,
        "version": "4.8"
    },
    {
        "animal_name": "Hawk, galapagos",
        "date": -1383534254,
        "latitude": -8.4981905,
        "longitude": 115.2001168,
        "priority": 0.65,
        "validated": true,
        "version": "0.81"
    },
    {
        "animal_name": "Eleven-banded armadillo (unidentified)",
        "date": -791793219,
        "latitude": 44.3239335,
        "longitude": 44.994265,
        "priority": 0.33,
        "validated": true,
        "version": "0.70"
    },
    {
        "animal_name": "Guerza",
        "date": 518144395,
        "latitude": -7.8100327,
        "longitude": 110.3592495,
        "priority": 0.58,
        "validated": false,
        "version": "7.68"
    },
    {
        "animal_name": "Macaw, scarlet",
        "date": 658237989,
        "latitude": -6.3917341,
        "longitude": 106.8856933,
        "priority": 0.88,
        "validated": true,
        "version": "6.93"
    },
    {
        "animal_name": "Raccoon, common",
        "date": 222064094,
        "latitude": 39.761424,
        "longitude": 117.006093,
        "priority": 0.65,
        "validated": true,
        "version": "0.5.5"
    },
    {
        "animal_name": "Oryx, fringe-eared",
        "date": 652310300,
        "latitude": -21.5418158,
        "longitude": -42.1837129,
        "priority": 0.6,
        "validated": true,
        "version": "8.67"
    },
    {
        "animal_name": "Cockatoo, red-breasted",
        "date": -226589409,
        "latitude": 45.4476447,
        "longitude": 9.1855974,
        "priority": 0.85,
        "validated": false,
        "version": "3.3.4"
    },
    {
        "animal_name": "Racer, american",
        "date": 525627024,
        "latitude": 37.3916313,
        "longitude": 140.3798031,
        "priority": 0.9,
        "validated": false,
        "version": "1.0.2"
    },
    {
        "animal_name": "Uinta ground squirrel",
        "date": -1878891445,
        "latitude": 43.285793,
        "longitude": 17.0893798,
        "priority": 0.78,
        "validated": false,
        "version": "0.65"
    },
    {
        "animal_name": "Bat, madagascar fruit",
        "date": -1692141809,
        "latitude": 45.2981711,
        "longitude": 41.5285717,
        "priority": 0.77,
        "validated": true,
        "version": "0.91"
    },
    {
        "animal_name": "Thirteen-lined squirrel",
        "date": 444405170,
        "latitude": 35.026516,
        "longitude": 111.00746,
        "priority": 0.15,
        "validated": false,
        "version": "3.1.4"
    },
    {
        "animal_name": "Great horned owl",
        "date": -1292619130,
        "latitude": 54.3843215,
        "longitude": 44.8151638,
        "priority": 0.63,
        "validated": true,
        "version": "6.5"
    },
    {
        "animal_name": "Kangaroo, red",
        "date": -1380264951,
        "latitude": -8.7733,
        "longitude": 121.137,
        "priority": 0.57,
        "validated": false,
        "version": "6.0.3"
    },
    {
        "animal_name": "Cat, jungle",
        "date": -1128171698,
        "latitude": 37.9656089,
        "longitude": 23.5677089,
        "priority": 0.83,
        "validated": false,
        "version": "0.2.7"
    },
    {
        "animal_name": "Dove, rock",
        "date": -1789107352,
        "latitude": -17.8336363,
        "longitude": 48.4088007,
        "priority": 0.37,
        "validated": false,
        "version": "4.8"
    },
    {
        "animal_name": "Crane, sandhill",
        "date": -163342778,
        "latitude": 40.980653,
        "longitude": 122.726063,
        "priority": 0.67,
        "validated": true,
        "version": "5.5"
    },
    {
        "animal_name": "Tailless tenrec",
        "date": -241224141,
        "latitude": 42.76667,
        "longitude": 23.56667,
        "priority": 0.3,
        "validated": true,
        "version": "0.2.6"
    },
    {
        "animal_name": "Deer, red",
        "date": -594016582,
        "latitude": -7.7888522,
        "longitude": 114.1914951,
        "priority": 0.69,
        "validated": true,
        "version": "7.7"
    },
    {
        "animal_name": "Puma",
        "date": -1650723965,
        "latitude": -10.6631,
        "longitude": 123.1415,
        "priority": 0.8,
        "validated": true,
        "version": "0.8.7"
    },
    {
        "animal_name": "Bushpig",
        "date": -1328869773,
        "latitude": 40.3981884,
        "longitude": 19.7308925,
        "priority": 0.8,
        "validated": false,
        "version": "0.99"
    },
    {
        "animal_name": "Cormorant, great",
        "date": -1036860529,
        "latitude": 66.870387,
        "longitude": 32.3919624,
        "priority": 0.13,
        "validated": true,
        "version": "6.77"
    },
    {
        "animal_name": "Skimmer, four-spotted",
        "date": -567032647,
        "latitude": 42.7376689,
        "longitude": -84.5169757,
        "priority": 0.13,
        "validated": false,
        "version": "1.3"
    },
    {
        "animal_name": "Crow, american",
        "date": 915958551,
        "latitude": 9.74084,
        "longitude": -75.519872,
        "priority": 0.43,
        "validated": false,
        "version": "0.95"
    },
    {
        "animal_name": "Waxbill, blue",
        "date": -1901716035,
        "latitude": -25.7917136,
        "longitude": -55.0879338,
        "priority": 0.56,
        "validated": true,
        "version": "2.6.2"
    },
    {
        "animal_name": "Heron, goliath",
        "date": -467650221,
        "latitude": 49.8958515,
        "longitude": 18.8188681,
        "priority": 0.57,
        "validated": false,
        "version": "0.2.3"
    },
    {
        "animal_name": "Gerbil (unidentified)",
        "date": -805883666,
        "latitude": 36.2291285,
        "longitude": 49.9213133,
        "priority": 0.2,
        "validated": false,
        "version": "7.87"
    },
    {
        "animal_name": "Snake, western patch-nosed",
        "date": -977071308,
        "latitude": -6.9661,
        "longitude": 111.3769,
        "priority": 0.82,
        "validated": true,
        "version": "0.5.3"
    },
    {
        "animal_name": "Red sheep",
        "date": -2030334682,
        "latitude": 34.144801,
        "longitude": -118.2563169,
        "priority": 0.5,
        "validated": true,
        "version": "9.5.4"
    },
    {
        "animal_name": "Brazilian otter",
        "date": -385761864,
        "latitude": 38.7015108,
        "longitude": -9.2848171,
        "priority": 0.7,
        "validated": true,
        "version": "7.35"
    },
    {
        "animal_name": "South American meadowlark (unidentified)",
        "date": -1198936833,
        "latitude": 41.126912,
        "longitude": -7.3592019,
        "priority": 0.26,
        "validated": false,
        "version": "0.85"
    },
    {
        "animal_name": "Ferret, black-footed",
        "date": -611505659,
        "latitude": 40.142128,
        "longitude": 94.661966,
        "priority": 0.58,
        "validated": false,
        "version": "0.1.8"
    },
    {
        "animal_name": "Phalarope, grey",
        "date": -828354345,
        "latitude": 4.4721794,
        "longitude": -75.7255192,
        "priority": 0.66,
        "validated": true,
        "version": "0.8.7"
    },
    {
        "animal_name": "Alligator, american",
        "date": -282452561,
        "latitude": 49.0498305,
        "longitude": 15.5547835,
        "priority": 0.19,
        "validated": false,
        "version": "9.2.6"
    },
    {
        "animal_name": "Seven-banded armadillo",
        "date": -79657922,
        "latitude": 39.630867,
        "longitude": 118.180193,
        "priority": 0.11,
        "validated": false,
        "version": "6.2"
    },
    {
        "animal_name": "Sparrow, rufous-collared",
        "date": -1888288061,
        "latitude": -29.5904737,
        "longitude": -51.3738524,
        "priority": 0.46,
        "validated": false,
        "version": "3.75"
    },
    {
        "animal_name": "Weaver, sociable",
        "date": -1889738577,
        "latitude": 13.699545,
        "longitude": 100.3448059,
        "priority": 0.45,
        "validated": false,
        "version": "5.8.4"
    },
    {
        "animal_name": "Wild boar",
        "date": -1343710749,
        "latitude": -8.3307,
        "longitude": 113.4145,
        "priority": 0.75,
        "validated": false,
        "version": "0.65"
    },
    {
        "animal_name": "Capuchin, weeper",
        "date": -508051921,
        "latitude": 36.512506,
        "longitude": 118.542982,
        "priority": 0.86,
        "validated": true,
        "version": "6.3.2"
    },
    {
        "animal_name": "Ostrich",
        "date": -1968040814,
        "latitude": -26.6119534,
        "longitude": -49.0075714,
        "priority": 0.43,
        "validated": true,
        "version": "9.41"
    },
    {
        "animal_name": "Otter, oriental short-clawed",
        "date": -258126213,
        "latitude": 46.5993244,
        "longitude": -1.1457859,
        "priority": 0.33,
        "validated": false,
        "version": "0.6.5"
    },
    {
        "animal_name": "Campo flicker",
        "date": -807835572,
        "latitude": -6.3323202,
        "longitude": 106.0316898,
        "priority": 0.61,
        "validated": false,
        "version": "0.33"
    },
    {
        "animal_name": "Red meerkat",
        "date": -1924746237,
        "latitude": 37.619096,
        "longitude": 120.846204,
        "priority": 0.38,
        "validated": true,
        "version": "0.16"
    },
    {
        "animal_name": "American alligator",
        "date": -465111170,
        "latitude": 59.0541421,
        "longitude": 12.695366,
        "priority": 0.12,
        "validated": true,
        "version": "0.34"
    },
    {
        "animal_name": "Burchell's gonolek",
        "date": 88001699,
        "latitude": 46.5448561,
        "longitude": 15.0941863,
        "priority": 0.73,
        "validated": true,
        "version": "1.4"
    },
    {
        "animal_name": "Western bearded dragon",
        "date": -731387568,
        "latitude": 50.0667486,
        "longitude": 22.5015349,
        "priority": 0.18,
        "validated": false,
        "version": "2.3"
    },
    {
        "animal_name": "Hornbill, leadbeateri's ground",
        "date": -970729220,
        "latitude": 11.8042973,
        "longitude": 15.8613233,
        "priority": 0.11,
        "validated": true,
        "version": "0.82"
    },
    {
        "animal_name": "Red-billed buffalo weaver",
        "date": -492913014,
        "latitude": 41.096515,
        "longitude": 45.4741645,
        "priority": 0.77,
        "validated": false,
        "version": "7.2.4"
    },